2019-03-27 08:36:21 INFO zookeeper_session.py:113 lcm_ops_by_pc is attempting to connect to Zookeeper
2019-03-27 08:36:21 INFO base_factory.py:52 Resetting factory NVMUtils
2019-03-27 08:36:21 INFO genesis_utils.py:2113 Trying to fetch cluster_functions from cached config_proto
2019-03-27 08:36:21 INFO nvm_utils.py:55 IS PC VM Call: True
2019-03-27 08:36:21 INFO nvm_utils.py:45 Retrieving PC Utilities.
2019-03-27 08:36:21 INFO base_factory.py:52 Resetting factory StagingUtils
2019-03-27 08:36:21 INFO zookeeper_session.py:113 lcm_ops_by_pc is attempting to connect to Zookeeper
2019-03-27 08:36:21 INFO operations.py:222 Found operation kDownloadOp
2019-03-27 08:36:21 INFO operations.py:222 Found operation kInventoryOp
2019-03-27 08:36:21 INFO ergon_utils.py:308 Root task uuid 3c1b3233-2377-4209-8cc1-421c2cb8c228
2019-03-27 08:36:21 INFO zookeeper_session.py:113 lcm_ops_by_pc is attempting to connect to Zookeeper
2019-03-27 08:36:21 INFO staging_utils.py:33 Retrieving the Catalog staging utils.
2019-03-27 08:36:21 INFO base_factory.py:52 Resetting factory FoundationClient
2019-03-27 08:36:21 INFO foundation_rest_client.py:134 Getting foundation version
2019-03-27 08:36:21 INFO foundation_rest_client.py:95 Making GET request to http://localhost:8000/foundation/version
2019-03-27 08:36:21 ERROR foundation_rest_client.py:140 Failed to get foundation version. The ret code is  and the response returned is 
2019-03-27 08:36:21 INFO foundation_client.py:114 Retrieving the Foundation Genesis Client.
2019-03-27 08:36:21 INFO base_factory.py:52 Resetting factory PCUtils
2019-03-27 08:36:21 INFO genesis_utils.py:2113 Trying to fetch cluster_functions from cached config_proto
2019-03-27 08:36:21 INFO nvm_utils.py:55 IS PC VM Call: True
2019-03-27 08:36:21 INFO nvm_utils.py:45 Retrieving PC Utilities.
2019-03-27 08:36:21 INFO base_factory.py:52 Resetting factory Downloader
2019-03-27 08:36:21 INFO downloader.py:23 Retrieving the Catalog Downloader.
2019-03-27 08:36:21 INFO lcm_ops_by_pc:399 Waiting for leadership change event
2019-03-27 08:36:21 INFO lcm_ops_by_pc:127 Task: 9d565964-0c6d-4247-bde5-903e76a31fd1, Operation: 101, Environment: 304, PC: 10.42.12.39, State: 1000
2019-03-27 08:36:21 INFO lcm_ops_by_pc:149 Starting to run state machine for LCM ops on PC.
2019-03-27 08:36:21 INFO lcm_ops_by_pc:160 State [1000], Handler [_execute_pre_actions], PC - [10.42.12.39]
2019-03-27 08:36:21 INFO lcm_ergon.py:322 Task: 9d565964-0c6d-4247-bde5-903e76a31fd1, status: 2, Percentage: 0 [None]
2019-03-27 08:36:21 INFO lcm_actions_helper.py:275 Using ZK WAL to store actions list
2019-03-27 08:36:21 INFO actions.py:584 actionsType: 0
2019-03-27 08:36:21 INFO actions.py:588 Getting flags for task: 9d565964-0c6d-4247-bde5-903e76a31fd1
2019-03-27 08:36:21 INFO actions.py:592 task_info: location_uuid: "a269d4be-0de3-48fe-96a2-3e3b4c48dca5"
reference_name: "release.karbon.update"
status {
  state: 1000
  description: "Created LCM task WAL for an inventory sub-task"
}
env_list: "pc"

2019-03-27 08:36:21 INFO actions.py:588 Getting flags for task: 577f1e4d-b0ce-4743-82ff-13cee2a1d740
2019-03-27 08:36:21 INFO actions.py:592 task_info: location_uuid: "a269d4be-0de3-48fe-96a2-3e3b4c48dca5"
reference_name: "nutanix.pc.update"
status {
  state: 1000
  description: "Created LCM task WAL for an inventory sub-task"
}
env_list: "pc"

2019-03-27 08:36:21 INFO actions.py:588 Getting flags for task: e1f1059b-d996-4a4b-91b0-1bf1899b67e8
2019-03-27 08:36:21 INFO actions.py:592 task_info: location_uuid: "a269d4be-0de3-48fe-96a2-3e3b4c48dca5"
reference_name: "release.epsilon.update"
status {
  state: 1000
  description: "Created LCM task WAL for an inventory sub-task"
}
env_list: "pc"

2019-03-27 08:36:21 INFO actions.py:588 Getting flags for task: b462c306-b2a6-48dd-8ecc-8237e3006d14
2019-03-27 08:36:21 INFO actions.py:592 task_info: location_uuid: "a269d4be-0de3-48fe-96a2-3e3b4c48dca5"
reference_name: "release.calm.update"
status {
  state: 1000
  description: "Created LCM task WAL for an inventory sub-task"
}
env_list: "pc"

2019-03-27 08:36:21 ERROR lcm_genesis.py:438 Failed to get host type
2019-03-27 08:36:21 INFO actions.py:618 De-duplicated flag list: []
2019-03-27 08:36:21 INFO lcm_actions_helper.py:93 action_list: []
2019-03-27 08:36:21 INFO lcm_actions_helper.py:359 No actions found.
2019-03-27 08:36:21 INFO ergon_utils.py:189 Updating task with state 1000, message Finished to execute pre-actions on PC
2019-03-27 08:36:21 INFO lcm_ergon.py:322 Task: 9d565964-0c6d-4247-bde5-903e76a31fd1, status: 2, Percentage: 30 [30]
2019-03-27 08:36:21 INFO lcm_ops_by_pc:160 State [1001], Handler [_prepare_pc_for_operation], PC - [10.42.12.39]
2019-03-27 08:36:21 INFO lcm_ergon.py:322 Task: 9d565964-0c6d-4247-bde5-903e76a31fd1, status: 2, Percentage: 30 [None]
2019-03-27 08:36:21 INFO lcm_ops_by_pc:205 Preparing PC of [10.42.12.39]
2019-03-27 08:36:21 INFO catalog_staging_utils.py:105 Staging module release.karbon.update and dependancies to cvm 10.42.12.39
2019-03-27 08:36:21 INFO catalog_staging_utils.py:353 Prep remote staging area /home/nutanix/tmp/lcm_staging
2019-03-27 08:36:32 INFO catalog_staging_utils.py:444 tar files: ['/home/nutanix/tmp/lcm_staging/48310501-3d7a-4be1-a3ed-9d990e39222b', '/home/nutanix/tmp/lcm_staging/52b1ce7c-5d9c-4d6e-b7e3-60ed6f6727a1', '/home/nutanix/tmp/lcm_staging/99c480c2-f454-4f8b-be8d-20bbd2044c73', '/home/nutanix/tmp/lcm_staging/9fa74857-28e6-4f6e-9c6f-fa4aa379a38c', '/home/nutanix/tmp/lcm_staging/bea6432d-ea5f-4285-b1e4-3ea5989ee4e8', '/home/nutanix/tmp/lcm_staging/db71adc3-dfb5-4267-8d50-de9040ffe655']
2019-03-27 08:36:32 INFO catalog_staging_utils.py:447 Extracting /home/nutanix/tmp/lcm_staging/48310501-3d7a-4be1-a3ed-9d990e39222b
2019-03-27 08:36:32 INFO catalog_staging_utils.py:456 Removing /home/nutanix/tmp/lcm_staging/48310501-3d7a-4be1-a3ed-9d990e39222b
2019-03-27 08:36:33 INFO catalog_staging_utils.py:447 Extracting /home/nutanix/tmp/lcm_staging/52b1ce7c-5d9c-4d6e-b7e3-60ed6f6727a1
2019-03-27 08:36:33 INFO catalog_staging_utils.py:456 Removing /home/nutanix/tmp/lcm_staging/52b1ce7c-5d9c-4d6e-b7e3-60ed6f6727a1
2019-03-27 08:36:34 INFO catalog_staging_utils.py:447 Extracting /home/nutanix/tmp/lcm_staging/99c480c2-f454-4f8b-be8d-20bbd2044c73
2019-03-27 08:36:34 INFO catalog_staging_utils.py:456 Removing /home/nutanix/tmp/lcm_staging/99c480c2-f454-4f8b-be8d-20bbd2044c73
2019-03-27 08:36:35 INFO catalog_staging_utils.py:447 Extracting /home/nutanix/tmp/lcm_staging/9fa74857-28e6-4f6e-9c6f-fa4aa379a38c
2019-03-27 08:36:35 INFO catalog_staging_utils.py:456 Removing /home/nutanix/tmp/lcm_staging/9fa74857-28e6-4f6e-9c6f-fa4aa379a38c
2019-03-27 08:36:36 INFO catalog_staging_utils.py:447 Extracting /home/nutanix/tmp/lcm_staging/bea6432d-ea5f-4285-b1e4-3ea5989ee4e8
2019-03-27 08:36:36 INFO catalog_staging_utils.py:456 Removing /home/nutanix/tmp/lcm_staging/bea6432d-ea5f-4285-b1e4-3ea5989ee4e8
2019-03-27 08:36:37 INFO catalog_staging_utils.py:447 Extracting /home/nutanix/tmp/lcm_staging/db71adc3-dfb5-4267-8d50-de9040ffe655
2019-03-27 08:36:37 INFO catalog_staging_utils.py:456 Removing /home/nutanix/tmp/lcm_staging/db71adc3-dfb5-4267-8d50-de9040ffe655
2019-03-27 08:36:38 INFO catalog_staging_utils.py:503 Not staging the repository image since the target version is 'None'
2019-03-27 08:36:38 INFO catalog_staging_utils.py:140 Staging is done for node 10.42.12.39
2019-03-27 08:36:38 INFO ergon_utils.py:189 Updating task with state 1001, message Finished to prepare PC for operation
2019-03-27 08:36:38 INFO lcm_ergon.py:322 Task: 9d565964-0c6d-4247-bde5-903e76a31fd1, status: 2, Percentage: 40 [40]
2019-03-27 08:36:38 INFO lcm_ops_by_pc:160 State [1002], Handler [_perform_operation_by_pc], PC - [10.42.12.39]
2019-03-27 08:36:38 INFO lcm_ergon.py:322 Task: 9d565964-0c6d-4247-bde5-903e76a31fd1, status: 2, Percentage: 40 [None]
2019-03-27 08:36:38 INFO lcm_ops_by_pc:250 Performing 101 operation
2019-03-27 08:36:39 INFO lcm_ops_by_pc:295 Output: DEBUG: Currently installed version of karbon-core is 0.8.2
DEBUG: Currently installed version of karbon-ui is 0.8.2
##START##
PC,None,Karbon,Karbon container service,0.8.2,1
##END##

2019-03-27 08:36:39 INFO lcm_ops_by_pc:302 Inventory result: ['PC', 'None', 'Karbon', 'Karbon container service', '0.8.2', '1']
2019-03-27 08:36:39 INFO cpdb_utils.py:1143 Creating new entity: c9ee6d12-7141-453f-a345-115e392e27e1
2019-03-27 08:36:39 INFO cpdb_utils.py:1161 Family: , Class: PC, Model: Karbon
2019-03-27 08:36:39 INFO cpdb_utils.py:888 No available version tables exists to delete
2019-03-27 08:36:39 INFO ergon_utils.py:189 Updating task with state 1002, message Finished to perform operation by PC
2019-03-27 08:36:39 INFO lcm_ergon.py:322 Task: 9d565964-0c6d-4247-bde5-903e76a31fd1, status: 2, Percentage: 60 [60]
2019-03-27 08:36:39 INFO lcm_ops_by_pc:160 State [1003], Handler [_post_ops_pc_cleanup], PC - [10.42.12.39]
2019-03-27 08:36:39 INFO lcm_ergon.py:322 Task: 9d565964-0c6d-4247-bde5-903e76a31fd1, status: 2, Percentage: 60 [None]
2019-03-27 08:36:39 INFO lcm_ops_by_pc:322 Performing clean up post operation
2019-03-27 08:36:40 INFO ergon_utils.py:189 Updating task with state 1003, message Finished to perform cleanup on PC post operation
2019-03-27 08:36:40 INFO lcm_ergon.py:322 Task: 9d565964-0c6d-4247-bde5-903e76a31fd1, status: 2, Percentage: 70 [70]
2019-03-27 08:36:40 INFO lcm_ops_by_pc:160 State [1004], Handler [_execute_post_actions], PC - [10.42.12.39]
2019-03-27 08:36:40 INFO lcm_ergon.py:322 Task: 9d565964-0c6d-4247-bde5-903e76a31fd1, status: 2, Percentage: 70 [None]
2019-03-27 08:36:40 INFO lcm_ops_by_pc:333 Deferring post-actions till the last task of the batch.
2019-03-27 08:36:40 INFO ergon_utils.py:189 Updating task with state 1004, message Finished to execute post-actions on PC
2019-03-27 08:36:40 INFO lcm_ergon.py:322 Task: 9d565964-0c6d-4247-bde5-903e76a31fd1, status: 3, Percentage: 100 [100]
2019-03-27 08:36:40 INFO lcm_ops_by_pc:141 Operation on 10.42.12.39 is successful
2019-03-27 08:36:40 INFO lcm_ops_by_pc:127 Task: 577f1e4d-b0ce-4743-82ff-13cee2a1d740, Operation: 101, Environment: 304, PC: 10.42.12.39, State: 1000
2019-03-27 08:36:40 INFO lcm_ops_by_pc:149 Starting to run state machine for LCM ops on PC.
2019-03-27 08:36:40 INFO lcm_ops_by_pc:160 State [1000], Handler [_execute_pre_actions], PC - [10.42.12.39]
2019-03-27 08:36:40 INFO lcm_ergon.py:322 Task: 577f1e4d-b0ce-4743-82ff-13cee2a1d740, status: 2, Percentage: 0 [None]
2019-03-27 08:36:40 INFO lcm_ops_by_pc:192 Pre-actions already executed. Skipping.
2019-03-27 08:36:40 INFO ergon_utils.py:189 Updating task with state 1000, message Finished to execute pre-actions on PC
2019-03-27 08:36:40 INFO lcm_ergon.py:322 Task: 577f1e4d-b0ce-4743-82ff-13cee2a1d740, status: 2, Percentage: 30 [30]
2019-03-27 08:36:40 INFO lcm_ops_by_pc:160 State [1001], Handler [_prepare_pc_for_operation], PC - [10.42.12.39]
2019-03-27 08:36:40 INFO lcm_ergon.py:322 Task: 577f1e4d-b0ce-4743-82ff-13cee2a1d740, status: 2, Percentage: 30 [None]
2019-03-27 08:36:40 INFO lcm_ops_by_pc:205 Preparing PC of [10.42.12.39]
2019-03-27 08:36:40 INFO catalog_staging_utils.py:105 Staging module nutanix.pc.update and dependancies to cvm 10.42.12.39
2019-03-27 08:36:40 INFO catalog_staging_utils.py:353 Prep remote staging area /home/nutanix/tmp/lcm_staging
2019-03-27 08:36:48 INFO catalog_staging_utils.py:444 tar files: ['/home/nutanix/tmp/lcm_staging/216663c2-9dde-42f3-be4d-6b9ee86476d9', '/home/nutanix/tmp/lcm_staging/3203a9de-6158-4830-9dee-19eb1c13e250', '/home/nutanix/tmp/lcm_staging/3c5ee449-6b6e-4640-890f-c546f794ca6a', '/home/nutanix/tmp/lcm_staging/48310501-3d7a-4be1-a3ed-9d990e39222b']
2019-03-27 08:36:48 INFO catalog_staging_utils.py:447 Extracting /home/nutanix/tmp/lcm_staging/216663c2-9dde-42f3-be4d-6b9ee86476d9
2019-03-27 08:36:48 INFO catalog_staging_utils.py:456 Removing /home/nutanix/tmp/lcm_staging/216663c2-9dde-42f3-be4d-6b9ee86476d9
2019-03-27 08:36:49 INFO catalog_staging_utils.py:447 Extracting /home/nutanix/tmp/lcm_staging/3203a9de-6158-4830-9dee-19eb1c13e250
2019-03-27 08:36:49 INFO catalog_staging_utils.py:456 Removing /home/nutanix/tmp/lcm_staging/3203a9de-6158-4830-9dee-19eb1c13e250
2019-03-27 08:36:50 INFO catalog_staging_utils.py:447 Extracting /home/nutanix/tmp/lcm_staging/3c5ee449-6b6e-4640-890f-c546f794ca6a
2019-03-27 08:36:50 INFO catalog_staging_utils.py:456 Removing /home/nutanix/tmp/lcm_staging/3c5ee449-6b6e-4640-890f-c546f794ca6a
2019-03-27 08:36:51 INFO catalog_staging_utils.py:447 Extracting /home/nutanix/tmp/lcm_staging/48310501-3d7a-4be1-a3ed-9d990e39222b
2019-03-27 08:36:51 INFO catalog_staging_utils.py:456 Removing /home/nutanix/tmp/lcm_staging/48310501-3d7a-4be1-a3ed-9d990e39222b
2019-03-27 08:36:52 INFO catalog_staging_utils.py:503 Not staging the repository image since the target version is 'None'
2019-03-27 08:36:52 INFO catalog_staging_utils.py:140 Staging is done for node 10.42.12.39
2019-03-27 08:36:52 INFO ergon_utils.py:189 Updating task with state 1001, message Finished to prepare PC for operation
2019-03-27 08:36:52 INFO lcm_ergon.py:322 Task: 577f1e4d-b0ce-4743-82ff-13cee2a1d740, status: 2, Percentage: 40 [40]
2019-03-27 08:36:52 INFO lcm_ops_by_pc:160 State [1002], Handler [_perform_operation_by_pc], PC - [10.42.12.39]
2019-03-27 08:36:52 INFO lcm_ergon.py:322 Task: 577f1e4d-b0ce-4743-82ff-13cee2a1d740, status: 2, Percentage: 40 [None]
2019-03-27 08:36:52 INFO lcm_ops_by_pc:250 Performing 101 operation
2019-03-27 08:36:55 INFO lcm_ops_by_pc:295 Output: ##START##
PC CORE CLUSTER,None,PC,PC version,5.10.2,1
##END##

2019-03-27 08:36:55 INFO lcm_ops_by_pc:302 Inventory result: ['PC CORE CLUSTER', 'None', 'PC', 'PC version', '5.10.2', '1']
2019-03-27 08:36:55 INFO cpdb_utils.py:1143 Creating new entity: d6edff2c-f59f-4754-978b-06b6237796b4
2019-03-27 08:36:55 INFO cpdb_utils.py:1161 Family: , Class: PC CORE CLUSTER, Model: PC
2019-03-27 08:36:55 INFO cpdb_utils.py:888 No available version tables exists to delete
2019-03-27 08:36:55 INFO ergon_utils.py:189 Updating task with state 1002, message Finished to perform operation by PC
2019-03-27 08:36:55 INFO lcm_ergon.py:322 Task: 577f1e4d-b0ce-4743-82ff-13cee2a1d740, status: 2, Percentage: 60 [60]
2019-03-27 08:36:56 INFO lcm_ops_by_pc:160 State [1003], Handler [_post_ops_pc_cleanup], PC - [10.42.12.39]
2019-03-27 08:36:56 INFO lcm_ergon.py:322 Task: 577f1e4d-b0ce-4743-82ff-13cee2a1d740, status: 2, Percentage: 60 [None]
2019-03-27 08:36:56 INFO lcm_ops_by_pc:322 Performing clean up post operation
2019-03-27 08:36:56 INFO ergon_utils.py:189 Updating task with state 1003, message Finished to perform cleanup on PC post operation
2019-03-27 08:36:56 INFO lcm_ergon.py:322 Task: 577f1e4d-b0ce-4743-82ff-13cee2a1d740, status: 2, Percentage: 70 [70]
2019-03-27 08:36:56 INFO lcm_ops_by_pc:160 State [1004], Handler [_execute_post_actions], PC - [10.42.12.39]
2019-03-27 08:36:56 INFO lcm_ergon.py:322 Task: 577f1e4d-b0ce-4743-82ff-13cee2a1d740, status: 2, Percentage: 70 [None]
2019-03-27 08:36:56 INFO lcm_ops_by_pc:333 Deferring post-actions till the last task of the batch.
2019-03-27 08:36:56 INFO ergon_utils.py:189 Updating task with state 1004, message Finished to execute post-actions on PC
2019-03-27 08:36:56 INFO lcm_ergon.py:322 Task: 577f1e4d-b0ce-4743-82ff-13cee2a1d740, status: 3, Percentage: 100 [100]
2019-03-27 08:36:56 INFO lcm_ops_by_pc:141 Operation on 10.42.12.39 is successful
2019-03-27 08:36:56 INFO lcm_ops_by_pc:127 Task: e1f1059b-d996-4a4b-91b0-1bf1899b67e8, Operation: 101, Environment: 304, PC: 10.42.12.39, State: 1000
2019-03-27 08:36:56 INFO lcm_ops_by_pc:149 Starting to run state machine for LCM ops on PC.
2019-03-27 08:36:56 INFO lcm_ops_by_pc:160 State [1000], Handler [_execute_pre_actions], PC - [10.42.12.39]
2019-03-27 08:36:56 INFO lcm_ergon.py:322 Task: e1f1059b-d996-4a4b-91b0-1bf1899b67e8, status: 2, Percentage: 0 [None]
2019-03-27 08:36:56 INFO lcm_ops_by_pc:192 Pre-actions already executed. Skipping.
2019-03-27 08:36:56 INFO ergon_utils.py:189 Updating task with state 1000, message Finished to execute pre-actions on PC
2019-03-27 08:36:56 INFO lcm_ergon.py:322 Task: e1f1059b-d996-4a4b-91b0-1bf1899b67e8, status: 2, Percentage: 30 [30]
2019-03-27 08:36:56 INFO lcm_ops_by_pc:160 State [1001], Handler [_prepare_pc_for_operation], PC - [10.42.12.39]
2019-03-27 08:36:56 INFO lcm_ergon.py:322 Task: e1f1059b-d996-4a4b-91b0-1bf1899b67e8, status: 2, Percentage: 30 [None]
2019-03-27 08:36:56 INFO lcm_ops_by_pc:205 Preparing PC of [10.42.12.39]
2019-03-27 08:36:56 INFO catalog_staging_utils.py:105 Staging module release.epsilon.update and dependancies to cvm 10.42.12.39
2019-03-27 08:36:56 INFO catalog_staging_utils.py:353 Prep remote staging area /home/nutanix/tmp/lcm_staging
2019-03-27 08:37:06 INFO catalog_staging_utils.py:444 tar files: ['/home/nutanix/tmp/lcm_staging/48310501-3d7a-4be1-a3ed-9d990e39222b', '/home/nutanix/tmp/lcm_staging/55009f01-27c3-400e-a9f7-514576a31771', '/home/nutanix/tmp/lcm_staging/65ed175a-8f47-4793-a779-9c0702609fe8', '/home/nutanix/tmp/lcm_staging/9fa74857-28e6-4f6e-9c6f-fa4aa379a38c', '/home/nutanix/tmp/lcm_staging/ecb316eb-7cd5-4560-8c2e-01e38a4532d8']
2019-03-27 08:37:06 INFO catalog_staging_utils.py:447 Extracting /home/nutanix/tmp/lcm_staging/48310501-3d7a-4be1-a3ed-9d990e39222b
2019-03-27 08:37:06 INFO catalog_staging_utils.py:456 Removing /home/nutanix/tmp/lcm_staging/48310501-3d7a-4be1-a3ed-9d990e39222b
2019-03-27 08:37:07 INFO catalog_staging_utils.py:447 Extracting /home/nutanix/tmp/lcm_staging/55009f01-27c3-400e-a9f7-514576a31771
2019-03-27 08:37:07 INFO catalog_staging_utils.py:456 Removing /home/nutanix/tmp/lcm_staging/55009f01-27c3-400e-a9f7-514576a31771
2019-03-27 08:37:08 INFO catalog_staging_utils.py:447 Extracting /home/nutanix/tmp/lcm_staging/65ed175a-8f47-4793-a779-9c0702609fe8
2019-03-27 08:37:08 INFO catalog_staging_utils.py:456 Removing /home/nutanix/tmp/lcm_staging/65ed175a-8f47-4793-a779-9c0702609fe8
2019-03-27 08:37:09 INFO catalog_staging_utils.py:447 Extracting /home/nutanix/tmp/lcm_staging/9fa74857-28e6-4f6e-9c6f-fa4aa379a38c
2019-03-27 08:37:09 INFO catalog_staging_utils.py:456 Removing /home/nutanix/tmp/lcm_staging/9fa74857-28e6-4f6e-9c6f-fa4aa379a38c
2019-03-27 08:37:10 INFO catalog_staging_utils.py:447 Extracting /home/nutanix/tmp/lcm_staging/ecb316eb-7cd5-4560-8c2e-01e38a4532d8
2019-03-27 08:37:10 INFO catalog_staging_utils.py:456 Removing /home/nutanix/tmp/lcm_staging/ecb316eb-7cd5-4560-8c2e-01e38a4532d8
2019-03-27 08:37:11 INFO catalog_staging_utils.py:503 Not staging the repository image since the target version is 'None'
2019-03-27 08:37:11 INFO catalog_staging_utils.py:140 Staging is done for node 10.42.12.39
2019-03-27 08:37:11 INFO ergon_utils.py:189 Updating task with state 1001, message Finished to prepare PC for operation
2019-03-27 08:37:11 INFO lcm_ergon.py:322 Task: e1f1059b-d996-4a4b-91b0-1bf1899b67e8, status: 2, Percentage: 40 [40]
2019-03-27 08:37:11 INFO lcm_ops_by_pc:160 State [1002], Handler [_perform_operation_by_pc], PC - [10.42.12.39]
2019-03-27 08:37:11 INFO lcm_ergon.py:322 Task: e1f1059b-d996-4a4b-91b0-1bf1899b67e8, status: 2, Percentage: 40 [None]
2019-03-27 08:37:11 INFO lcm_ops_by_pc:250 Performing 101 operation
2019-03-27 08:37:11 INFO lcm_ops_by_pc:295 Output: ##START##
PC,None,Epsilon,PC Container based orchestration engine service,2.5.1,1
##END##

2019-03-27 08:37:11 INFO lcm_ops_by_pc:302 Inventory result: ['PC', 'None', 'Epsilon', 'PC Container based orchestration engine service', '2.5.1', '1']
2019-03-27 08:37:11 INFO cpdb_utils.py:1143 Creating new entity: 758942f1-d42d-4d49-99fc-b73e2f2dca30
2019-03-27 08:37:11 INFO cpdb_utils.py:1161 Family: , Class: PC, Model: Epsilon
2019-03-27 08:37:11 INFO cpdb_utils.py:888 No available version tables exists to delete
2019-03-27 08:37:11 INFO ergon_utils.py:189 Updating task with state 1002, message Finished to perform operation by PC
2019-03-27 08:37:11 INFO lcm_ergon.py:322 Task: e1f1059b-d996-4a4b-91b0-1bf1899b67e8, status: 2, Percentage: 60 [60]
2019-03-27 08:37:11 INFO lcm_ops_by_pc:160 State [1003], Handler [_post_ops_pc_cleanup], PC - [10.42.12.39]
2019-03-27 08:37:11 INFO lcm_ergon.py:322 Task: e1f1059b-d996-4a4b-91b0-1bf1899b67e8, status: 2, Percentage: 60 [None]
2019-03-27 08:37:11 INFO lcm_ops_by_pc:322 Performing clean up post operation
2019-03-27 08:37:12 INFO ergon_utils.py:189 Updating task with state 1003, message Finished to perform cleanup on PC post operation
2019-03-27 08:37:12 INFO lcm_ergon.py:322 Task: e1f1059b-d996-4a4b-91b0-1bf1899b67e8, status: 2, Percentage: 70 [70]
2019-03-27 08:37:12 INFO lcm_ops_by_pc:160 State [1004], Handler [_execute_post_actions], PC - [10.42.12.39]
2019-03-27 08:37:12 INFO lcm_ergon.py:322 Task: e1f1059b-d996-4a4b-91b0-1bf1899b67e8, status: 2, Percentage: 70 [None]
2019-03-27 08:37:12 INFO lcm_ops_by_pc:333 Deferring post-actions till the last task of the batch.
2019-03-27 08:37:12 INFO ergon_utils.py:189 Updating task with state 1004, message Finished to execute post-actions on PC
2019-03-27 08:37:12 INFO lcm_ergon.py:322 Task: e1f1059b-d996-4a4b-91b0-1bf1899b67e8, status: 3, Percentage: 100 [100]
2019-03-27 08:37:12 INFO lcm_ops_by_pc:141 Operation on 10.42.12.39 is successful
2019-03-27 08:37:12 INFO lcm_ops_by_pc:127 Task: b462c306-b2a6-48dd-8ecc-8237e3006d14, Operation: 101, Environment: 304, PC: 10.42.12.39, State: 1000
2019-03-27 08:37:12 INFO lcm_ops_by_pc:149 Starting to run state machine for LCM ops on PC.
2019-03-27 08:37:12 INFO lcm_ops_by_pc:160 State [1000], Handler [_execute_pre_actions], PC - [10.42.12.39]
2019-03-27 08:37:12 INFO lcm_ergon.py:322 Task: b462c306-b2a6-48dd-8ecc-8237e3006d14, status: 2, Percentage: 0 [None]
2019-03-27 08:37:12 INFO lcm_ops_by_pc:192 Pre-actions already executed. Skipping.
2019-03-27 08:37:12 INFO ergon_utils.py:189 Updating task with state 1000, message Finished to execute pre-actions on PC
2019-03-27 08:37:12 INFO lcm_ergon.py:322 Task: b462c306-b2a6-48dd-8ecc-8237e3006d14, status: 2, Percentage: 30 [30]
2019-03-27 08:37:12 INFO lcm_ops_by_pc:160 State [1001], Handler [_prepare_pc_for_operation], PC - [10.42.12.39]
2019-03-27 08:37:12 INFO lcm_ergon.py:322 Task: b462c306-b2a6-48dd-8ecc-8237e3006d14, status: 2, Percentage: 30 [None]
2019-03-27 08:37:12 INFO lcm_ops_by_pc:205 Preparing PC of [10.42.12.39]
2019-03-27 08:37:12 INFO catalog_staging_utils.py:105 Staging module release.calm.update and dependancies to cvm 10.42.12.39
2019-03-27 08:37:12 INFO catalog_staging_utils.py:353 Prep remote staging area /home/nutanix/tmp/lcm_staging
2019-03-27 08:37:21 INFO catalog_staging_utils.py:444 tar files: ['/home/nutanix/tmp/lcm_staging/0ae75eb4-9852-45cc-ae0b-af42e5f2e7ac', '/home/nutanix/tmp/lcm_staging/15e3c3d6-861d-4c16-ac4d-fd5444649867', '/home/nutanix/tmp/lcm_staging/1d4c8d87-7cbe-42a3-9504-50a3173328fc', '/home/nutanix/tmp/lcm_staging/48310501-3d7a-4be1-a3ed-9d990e39222b', '/home/nutanix/tmp/lcm_staging/9fa74857-28e6-4f6e-9c6f-fa4aa379a38c']
2019-03-27 08:37:21 INFO catalog_staging_utils.py:447 Extracting /home/nutanix/tmp/lcm_staging/0ae75eb4-9852-45cc-ae0b-af42e5f2e7ac
2019-03-27 08:37:22 INFO catalog_staging_utils.py:456 Removing /home/nutanix/tmp/lcm_staging/0ae75eb4-9852-45cc-ae0b-af42e5f2e7ac
2019-03-27 08:37:22 INFO catalog_staging_utils.py:447 Extracting /home/nutanix/tmp/lcm_staging/15e3c3d6-861d-4c16-ac4d-fd5444649867
2019-03-27 08:37:23 INFO catalog_staging_utils.py:456 Removing /home/nutanix/tmp/lcm_staging/15e3c3d6-861d-4c16-ac4d-fd5444649867
2019-03-27 08:37:23 INFO catalog_staging_utils.py:447 Extracting /home/nutanix/tmp/lcm_staging/1d4c8d87-7cbe-42a3-9504-50a3173328fc
2019-03-27 08:37:24 INFO catalog_staging_utils.py:456 Removing /home/nutanix/tmp/lcm_staging/1d4c8d87-7cbe-42a3-9504-50a3173328fc
2019-03-27 08:37:24 INFO catalog_staging_utils.py:447 Extracting /home/nutanix/tmp/lcm_staging/48310501-3d7a-4be1-a3ed-9d990e39222b
2019-03-27 08:37:25 INFO catalog_staging_utils.py:456 Removing /home/nutanix/tmp/lcm_staging/48310501-3d7a-4be1-a3ed-9d990e39222b
2019-03-27 08:37:25 INFO catalog_staging_utils.py:447 Extracting /home/nutanix/tmp/lcm_staging/9fa74857-28e6-4f6e-9c6f-fa4aa379a38c
2019-03-27 08:37:26 INFO catalog_staging_utils.py:456 Removing /home/nutanix/tmp/lcm_staging/9fa74857-28e6-4f6e-9c6f-fa4aa379a38c
2019-03-27 08:37:26 INFO catalog_staging_utils.py:503 Not staging the repository image since the target version is 'None'
2019-03-27 08:37:26 INFO catalog_staging_utils.py:140 Staging is done for node 10.42.12.39
2019-03-27 08:37:26 INFO ergon_utils.py:189 Updating task with state 1001, message Finished to prepare PC for operation
2019-03-27 08:37:26 INFO lcm_ergon.py:322 Task: b462c306-b2a6-48dd-8ecc-8237e3006d14, status: 2, Percentage: 40 [40]
2019-03-27 08:37:26 INFO lcm_ops_by_pc:160 State [1002], Handler [_perform_operation_by_pc], PC - [10.42.12.39]
2019-03-27 08:37:26 INFO lcm_ergon.py:322 Task: b462c306-b2a6-48dd-8ecc-8237e3006d14, status: 2, Percentage: 40 [None]
2019-03-27 08:37:26 INFO lcm_ops_by_pc:250 Performing 101 operation
2019-03-27 08:37:27 INFO lcm_ops_by_pc:295 Output: ##START##
PC,None,Calm,PC Container based cloud application lifecycle management service,2.4.0,1
##END##

2019-03-27 08:37:27 INFO lcm_ops_by_pc:302 Inventory result: ['PC', 'None', 'Calm', 'PC Container based cloud application lifecycle management service', '2.4.0', '1']
2019-03-27 08:37:27 INFO cpdb_utils.py:1143 Creating new entity: 03a6e4a2-fa0e-4698-b0c0-e142820a2e94
2019-03-27 08:37:27 INFO cpdb_utils.py:1161 Family: , Class: PC, Model: Calm
2019-03-27 08:37:27 INFO cpdb_utils.py:888 No available version tables exists to delete
2019-03-27 08:37:27 INFO ergon_utils.py:189 Updating task with state 1002, message Finished to perform operation by PC
2019-03-27 08:37:27 INFO lcm_ergon.py:322 Task: b462c306-b2a6-48dd-8ecc-8237e3006d14, status: 2, Percentage: 60 [60]
2019-03-27 08:37:27 INFO lcm_ops_by_pc:160 State [1003], Handler [_post_ops_pc_cleanup], PC - [10.42.12.39]
2019-03-27 08:37:27 INFO lcm_ergon.py:322 Task: b462c306-b2a6-48dd-8ecc-8237e3006d14, status: 2, Percentage: 60 [None]
2019-03-27 08:37:27 INFO lcm_ops_by_pc:322 Performing clean up post operation
2019-03-27 08:37:28 INFO ergon_utils.py:189 Updating task with state 1003, message Finished to perform cleanup on PC post operation
2019-03-27 08:37:28 INFO lcm_ergon.py:322 Task: b462c306-b2a6-48dd-8ecc-8237e3006d14, status: 2, Percentage: 70 [70]
2019-03-27 08:37:28 INFO lcm_ops_by_pc:160 State [1004], Handler [_execute_post_actions], PC - [10.42.12.39]
2019-03-27 08:37:28 INFO lcm_ergon.py:322 Task: b462c306-b2a6-48dd-8ecc-8237e3006d14, status: 2, Percentage: 70 [None]
2019-03-27 08:37:28 INFO lcm_actions_helper.py:275 Using ZK WAL to store actions list
2019-03-27 08:37:28 INFO actions.py:584 actionsType: 1
2019-03-27 08:37:28 INFO actions.py:588 Getting flags for task: 9d565964-0c6d-4247-bde5-903e76a31fd1
2019-03-27 08:37:28 INFO actions.py:592 task_info: location_uuid: "a269d4be-0de3-48fe-96a2-3e3b4c48dca5"
reference_name: "release.karbon.update"
status {
  state: 1004
  description: "Finished to execute post-actions on PC"
}
env_list: "pc"

2019-03-27 08:37:28 INFO actions.py:588 Getting flags for task: 577f1e4d-b0ce-4743-82ff-13cee2a1d740
2019-03-27 08:37:28 INFO actions.py:592 task_info: location_uuid: "a269d4be-0de3-48fe-96a2-3e3b4c48dca5"
reference_name: "nutanix.pc.update"
status {
  state: 1004
  description: "Finished to execute post-actions on PC"
}
env_list: "pc"

2019-03-27 08:37:28 INFO actions.py:588 Getting flags for task: e1f1059b-d996-4a4b-91b0-1bf1899b67e8
2019-03-27 08:37:28 INFO actions.py:592 task_info: location_uuid: "a269d4be-0de3-48fe-96a2-3e3b4c48dca5"
reference_name: "release.epsilon.update"
status {
  state: 1004
  description: "Finished to execute post-actions on PC"
}
env_list: "pc"

2019-03-27 08:37:28 INFO actions.py:588 Getting flags for task: b462c306-b2a6-48dd-8ecc-8237e3006d14
2019-03-27 08:37:28 INFO actions.py:592 task_info: location_uuid: "a269d4be-0de3-48fe-96a2-3e3b4c48dca5"
reference_name: "release.calm.update"
status {
  state: 1003
  description: "Finished to perform cleanup on PC post operation"
  operation_done: true
}
env_list: "pc"

2019-03-27 08:37:28 ERROR lcm_genesis.py:438 Failed to get host type
2019-03-27 08:37:28 INFO actions.py:618 De-duplicated flag list: []
2019-03-27 08:37:28 INFO lcm_actions_helper.py:93 action_list: []
2019-03-27 08:37:28 INFO lcm_actions_helper.py:359 No actions found.
2019-03-27 08:37:28 INFO ergon_utils.py:189 Updating task with state 1004, message Finished to execute post-actions on PC
2019-03-27 08:37:28 INFO lcm_ergon.py:322 Task: b462c306-b2a6-48dd-8ecc-8237e3006d14, status: 3, Percentage: 100 [100]
2019-03-27 08:37:28 INFO lcm_ops_by_pc:141 Operation on 10.42.12.39 is successful
2019-03-27 08:37:28 INFO lcm_ops_by_pc:381 LCM operation 101 for 304 is successful
2019-03-27 08:37:51 DEBUG zookeeper_session.py:90 Using host_port_list: zk1:9876
2019-03-27 08:37:51 INFO zookeeper_session.py:113 lcm_ops_for_rim is attempting to connect to Zookeeper
2019-03-27 08:37:51 INFO lcm_ops_for_rim:143 Setting Factories for RIM operations!
2019-03-27 08:37:51 INFO base_factory.py:63 Setting factory NVMUtils implementation
2019-03-27 08:37:51 INFO genesis_utils.py:2113 Trying to fetch cluster_functions from cached config_proto
2019-03-27 08:37:51 INFO nvm_utils.py:55 IS PC VM Call: True
2019-03-27 08:37:51 INFO nvm_utils.py:45 Retrieving PC Utilities.
2019-03-27 08:37:51 INFO base_factory.py:63 Setting factory PCUtils implementation
2019-03-27 08:37:51 INFO genesis_utils.py:2113 Trying to fetch cluster_functions from cached config_proto
2019-03-27 08:37:51 INFO nvm_utils.py:55 IS PC VM Call: True
2019-03-27 08:37:51 INFO nvm_utils.py:45 Retrieving PC Utilities.
2019-03-27 08:37:51 INFO lcm_ops_for_rim:105 Fetching available versions from repository
2019-03-27 08:37:51 INFO repository_image_utils.py:345 Performing Inventory for Repository Image
2019-03-27 08:37:51 DEBUG repository_image_utils.py:299 Fetching entities currently inventoried
2019-03-27 08:37:51 INFO lcm_ops_for_rim:173 Waiting for leadership change event
2019-03-27 08:37:51 DEBUG repository_image_utils.py:310 Adding uuid: "c9ee6d12-7141-453f-a345-115e392e27e1"
location_id: "pc:e636212f-3d79-4a4b-8e78-afa94c05cb66"
entity_class: "PC"
entity_model: "Karbon"
version: "0.8.2"
hw_family: ""
description: "Karbon container service"
count: 1
last_detected_time_usecs: 1553700999578310
 to entity set
2019-03-27 08:37:51 DEBUG repository_image_utils.py:310 Adding uuid: "d6edff2c-f59f-4754-978b-06b6237796b4"
location_id: "pc:e636212f-3d79-4a4b-8e78-afa94c05cb66"
entity_class: "PC CORE CLUSTER"
entity_model: "PC"
version: "5.10.2"
hw_family: ""
description: "PC version"
count: 1
last_detected_time_usecs: 1553701015964970
 to entity set
2019-03-27 08:37:51 DEBUG repository_image_utils.py:310 Adding uuid: "758942f1-d42d-4d49-99fc-b73e2f2dca30"
location_id: "pc:e636212f-3d79-4a4b-8e78-afa94c05cb66"
entity_class: "PC"
entity_model: "Epsilon"
version: "2.5.1"
hw_family: ""
description: "PC Container based orchestration engine service"
count: 1
last_detected_time_usecs: 1553701031786357
 to entity set
2019-03-27 08:37:51 DEBUG repository_image_utils.py:310 Adding uuid: "03a6e4a2-fa0e-4698-b0c0-e142820a2e94"
location_id: "pc:e636212f-3d79-4a4b-8e78-afa94c05cb66"
entity_class: "PC"
entity_model: "Calm"
version: "2.4.0"
hw_family: ""
description: "PC Container based cloud application lifecycle management service"
count: 1
last_detected_time_usecs: 1553701047595510
 to entity set
2019-03-27 08:37:51 INFO repository_image_utils.py:316 Entity Dict created is as follows: defaultdict(<type 'list'>, {('PC', 'CALM'): [u'pc:e636212f-3d79-4a4b-8e78-afa94c05cb66'], ('PC', 'EPSILON'): [u'pc:e636212f-3d79-4a4b-8e78-afa94c05cb66'], ('PC', 'KARBON'): [u'pc:e636212f-3d79-4a4b-8e78-afa94c05cb66'], ('PC CORE CLUSTER', 'PC'): [u'pc:e636212f-3d79-4a4b-8e78-afa94c05cb66']})
2019-03-27 08:37:51 DEBUG repository_image_utils.py:364 Fetching modules of type: update
2019-03-27 08:37:51 DEBUG repository_image_utils.py:374 Looping over all the update modules to perform inventory only on those modules which support repository image
2019-03-27 08:37:51 DEBUG repository_image_utils.py:387 Managed Entity with entity class: PC and entity model: Karbon supports repository image module
2019-03-27 08:37:51 INFO repository_image_utils.py:1086 Retrieving module with reference name release.karbon.repository_image
2019-03-27 08:37:51 INFO repository_image_utils.py:779 Getting tag list for: release.karbon.repository_image
2019-03-27 08:37:51 DEBUG repository_image_utils.py:783 Tag List for release.karbon.repository_image is []
2019-03-27 08:37:51 INFO repository_image_utils.py:756 Getting flag list for: release.karbon.repository_image
2019-03-27 08:37:51 DEBUG repository_image_utils.py:760 Flag List for release.karbon.repository_image is []
2019-03-27 08:37:51 DEBUG repository_image_utils.py:893 Building repository_image_base_url
2019-03-27 08:37:51 DEBUG zookeeper_session.py:90 Using host_port_list: zk1:9876
2019-03-27 08:37:51 INFO zookeeper_session.py:113 lcm_ops_for_rim is attempting to connect to Zookeeper
2019-03-27 08:37:51 DEBUG configuration.py:158 Found config version: "2.1.5579"
url: "http://download.nutanix.com/lcm/2.0"
auto_update_enabled: false
lcm_standalone_ui_enabled: false
lcm_pc_enabled: false
deprecated_software_entities: "Firmware"

2019-03-27 08:37:51 INFO configuration.py:137 Read config: {'url': u'http://download.nutanix.com/lcm/2.0', 'deprecated_software_entities': [u'Firmware'], 'lcm_standalone_ui_enabled': False, 'lcm_pc_enabled': False, 'version': u'2.1.5579', 'auto_update_enabled': False}
2019-03-27 08:37:51 DEBUG repository_image_utils.py:896 URL present in config is: http://download.nutanix.com/lcm/2.0
2019-03-27 08:37:51 INFO repository_image_utils.py:900 Repository Image Base URL built by framework: http://download.nutanix.com/lcm/2.0/builds/
2019-03-27 08:37:51 INFO repository_image_utils.py:84 Repository Image Verification as a feature is disabled or not supported in the current AOS
2019-03-27 08:37:51 INFO repository_image_utils.py:831 Parameters created for inventory by repository image module:{'public_key_location': '/home/nutanix/cluster/config/lcm/lcm_public.pem', 'flag_list': [], 'base_url': u'http://download.nutanix.com/lcm/2.0/builds/', 'entity_model': u'Karbon', 'rim_verification_support': False, 'tag_list': [], 'proxy_env': {'JETTY_HOME': '/usr/local/nutanix/jetty', 'MY_SERVICE_NAME': 'genesis', 'ZOO_LOG_DIR': '/home/nutanix/data/logs', 'ZOO_START_LOG_FILE': '/home/nutanix/data/logs/zookeeper.log', 'CATALINA_OUT': '/home/nutanix/data/logs/catalina.out', 'LESSOPEN': '||/usr/bin/lesspipe.sh %s', 'LOGNAME': 'nutanix', 'USER': 'nutanix', 'HOME': '/home/nutanix', 'NUTANIX_BINARY_LOG_DIR': '/home/nutanix/data/binary_logs', 'PATH': '/home/nutanix/ncc/panacea/bin:/usr/lib/jvm/jre-1.8.0/bin:/home/nutanix/ncc/bin:/home/nutanix/kvm/bin:/home/nutanix/prism/cli:/usr/local/nutanix/cluster/lib/sg3utils/bin:/usr/local/nutanix/minerva/bin:/usr/local/nutanix/cluster/bin:/usr/local/nutanix/zookeeper/bin:/usr/local/nutanix/apache-cassandra/bin:/usr/local/nutanix/bin:/home/nutanix/ncc/panacea/bin:/usr/lib/jvm/jre-1.8.0/bin:/home/nutanix/ncc/bin:/home/nutanix/kvm/bin:/home/nutanix/prism/cli:/usr/local/nutanix/cluster/lib/sg3utils/bin:/usr/local/nutanix/minerva/bin:/usr/local/nutanix/cluster/bin:/usr/local/nutanix/zookeeper/bin:/usr/local/nutanix/apache-cassandra/bin:/usr/local/nutanix/bin:/usr/local/bin:/bin:/usr/bin:/usr/local/sbin:/usr/sbin', 'CASSANDRA_HOME': '/usr/local/nutanix/apache-cassandra', 'LANG': 'en_US.UTF-8', 'CATALINA_BASE': '/home/nutanix/prism', 'SHELL': '/bin/bash', 'NUTANIX_START_LOG_FILE': '/home/nutanix/data/logs/startup.log', 'JDK_HOME': '/usr/lib/jvm/jre-1.8.0', 'SHLVL': '2', 'NUTANIX_BASE_DIR': '/usr/local/nutanix', 'HISTSIZE': '1000', 'GEVENT_RESOLVER': 'ares', 'ZOOKEEPER_HOST_PORT_LIST': 'zk1:9876', 'NUTANIX_LOG_DIR': '/home/nutanix/data/logs', 'MY_EXTERNAL_IP': '10.42.12.39', 'LIBVIRT_DEFAULT_URI': 'qemu+ssh://root@192.168.5.1/system?no_verify=1', 'JAVA_HOME': '/usr/lib/jvm/jre-1.8.0', 'CASSANDRA_INCLUDE': '/home/nutanix/config/cassandra/cassandra.in.sh', 'XDG_RUNTIME_DIR': '/run/user/1000', 'CORE_PATTERN': '|/home/nutanix/serviceability/bin/coredump.py %p %s %e', 'PERL_LWP_SSL_VERIFY_HOSTNAME': '0', 'SSH_KEY': '/home/nutanix/.ssh/id_rsa', 'TOMCAT_HOME': '/usr/local/nutanix/apache-tomcat', 'LC_ALL': 'en_US.UTF-8', 'XDG_SESSION_ID': 'c1', '_': '/home/nutanix/cluster/bin/genesis', 'ZOOCFGDIR': '/home/nutanix/config/zookeeper', 'GLOG_max_log_size': '100', 'CASSANDRA_MAX_HEAP_SIZE': '2560M', 'HOSTNAME': 'ntnx-10-42-12-39-a-pcvm', 'CASSANDRA_CONF': '/home/nutanix/config/cassandra', 'HISTCONTROL': 'ignoredups', 'PWD': '/home/nutanix', 'MAIL': '/var/spool/mail/nutanix'}}
2019-03-27 08:37:51 INFO repository_image_utils.py:421 Getting Version List for release.karbon.repository_image repository_image_module
2019-03-27 08:37:51 INFO catalog_staging_utils.py:105 Staging module release.karbon.update and dependancies to cvm 10.42.12.39
2019-03-27 08:37:51 INFO catalog_staging_utils.py:353 Prep remote staging area /home/nutanix/tmp/lcm_staging
2019-03-27 08:37:51 DEBUG ssh_client.py:188 Executing rm -rf /home/nutanix/tmp/lcm_staging on 10.42.12.39 using ssh -q -o CheckHostIp=no -o ConnectTimeout=15 -o StrictHostKeyChecking=no -o TCPKeepAlive=yes -o UserKnownHostsFile=/dev/null  -o PreferredAuthentications=publickey  nutanix@10.42.12.39
2019-03-27 08:37:51 DEBUG ssh_client.py:200 Executing cmd: ssh -q -o CheckHostIp=no -o ConnectTimeout=15 -o StrictHostKeyChecking=no -o TCPKeepAlive=yes -o UserKnownHostsFile=/dev/null  -o PreferredAuthentications=publickey  nutanix@10.42.12.39 rm -rf /home/nutanix/tmp/lcm_staging
2019-03-27 08:37:52 DEBUG ssh_client.py:203 Executed rm -rf /home/nutanix/tmp/lcm_staging on 10.42.12.39: rv 0
2019-03-27 08:37:52 DEBUG ssh_client.py:188 Executing mkdir -p /home/nutanix/tmp/lcm_staging on 10.42.12.39 using ssh -q -o CheckHostIp=no -o ConnectTimeout=15 -o StrictHostKeyChecking=no -o TCPKeepAlive=yes -o UserKnownHostsFile=/dev/null  -o PreferredAuthentications=publickey  nutanix@10.42.12.39
2019-03-27 08:37:52 DEBUG ssh_client.py:200 Executing cmd: ssh -q -o CheckHostIp=no -o ConnectTimeout=15 -o StrictHostKeyChecking=no -o TCPKeepAlive=yes -o UserKnownHostsFile=/dev/null  -o PreferredAuthentications=publickey  nutanix@10.42.12.39 mkdir -p /home/nutanix/tmp/lcm_staging
2019-03-27 08:37:52 DEBUG ssh_client.py:203 Executed mkdir -p /home/nutanix/tmp/lcm_staging on 10.42.12.39: rv 0
2019-03-27 08:37:52 DEBUG cpdb_utils.py:267 Module list is <google.protobuf.pyext._message.RepeatedScalarContainer object at 0x7fb8eeecf3b0>
2019-03-27 08:37:52 DEBUG cpdb_utils.py:820 Found modules: [{'location': u'c88e6e66-f152-49bc-adce-0b44827cdcaa', 'digest': u'd3ccb11049624f9021065381859fbcb34f06ee25cb69ce8c32ac7c93879f841c'}, {'location': u'd7cfc33d-2f6d-408e-af8d-f67c9b8ffb67', 'digest': u'48b429aaba419e03519da545038974d75282d73ef9a0fee103de1c920193344c'}, {'location': u'8512cf7d-c1a5-4da0-922c-7c6c1ec16859', 'digest': u'77253ffc5eeaa1c21d3af86398e549af2d1be18f23114b4e26a0308684159a12'}, {'location': u'60dd8442-1902-4b0a-a16a-1d3248069c6c', 'digest': u'f1ad5e467e011a6d2eed86e2536489ee323647ee6c0fdf410716fc64b9b0ab3e'}, {'location': u'f80da7c4-eb51-4df8-95ca-c92cfbdf5afa', 'digest': u'd51b7d5a11341af55a65ed46ae19c4812e599ce3ee6b6778bcd613dea7297978'}, {'location': u'469d6ddf-2093-4585-b93c-bfad0aea61b7', 'digest': u'bdd769ece19451895bc79ac1425ba4b95c46c8ad5d3f59d3de3e84290cc46ab7'}]
2019-03-27 08:37:52 DEBUG lcm_catalog.py:197 Found catalog items: –GTîÚwM‘h²8bBe, ÌêŠaEP³Šü'_½, ²÷QýóáCp¾wÀõí†ê, ýO
&.NSšqT»ó&Ò, Äp.ëL•”FP{Vÿp, Ò
&€(Lr·dù™CÒF
2019-03-27 08:37:52 DEBUG catalog_utils.py:262 Getting file from uuid: "\226GT\356\332wM\030\221h\235\2628bBe"
name: "release.karbon.update"
annotation: "d3ccb11049624f9021065381859fbcb34f06ee25cb69ce8c32ac7c93879f841c"
item_type: kLCM
version: 0
opaque: "\n@d3ccb11049624f9021065381859fbcb34f06ee25cb69ce8c32ac7c93879f841c\020\002\032\020\3466!/=yJK\216x\257\251L\005\313f"
source_group_list {
  uuid: "Wz6GM3E,\227\r\364\254\226\306\377\352"
  source_list {
    file_uuid: "\276\246C-\352_B\205\261\344>\245\230\236\344\350"
  }
}
global_catalog_item_uuid: "\310\216nf\361RI\274\255\316\013D\202|\334\252"
location_list {
  cluster_uuid: "\000\005\205\023d\264Q$\000\000\000\000\000\000\321\267"
}
owner_cluster_uuid: "\3466!/=yJK\216x\257\251L\005\313f"
source_catalog_item_id {
  global_catalog_item_uuid: "\310\216nf\361RI\274\255\316\013D\202|\334\252"
  version: 0
}

2019-03-27 08:37:52 DEBUG lcm_catalog.py:283 Found file uuids ['bea6432d-ea5f-4285-b1e4-3ea5989ee4e8']
2019-03-27 08:37:52 DEBUG catalog_utils.py:675 Prism is up and running
2019-03-27 08:37:53 DEBUG catalog_utils.py:653 Authentication header: {'name': 'JSESSIONID', 'value': '.eJxdkEFvwjAMhf-LzwRRVmD0hlgPSGVIlG6HaYrc1gxLaRol6aYJ8d8XunKAo58_2-_5DNKQbVCT9pB429EIuo5rSKBcEE0ijMU8xpmIq-cngctpJWhRzqNojlFVLyHQjqz_NRQmst16lQUJO38K-7hCT_VtK7ZOfpN13OqAUmdONrSdmI2jyXgqnMdS0TDcWvZMDpIP2O-yVG6L7LBZZ0V-SPdy9bLdvAaw7xT5o3LD3jbpe7qHzxEYy7pig0pqbK4-sW5YD9alse2Rw-Xk3NcPiEHnflobUuhOqRGotsIrDKRFkQfA0teQaBCObJ2_XQp1w3WtSLIOkVD9awrvEGqQleyfDpfLH8gogW4.D30qUQ.QAb5gPxBCkCQ-jSgYftfEFwJR1y1OV5e3Rc4Ou_Cep_ptYklRl0ltZzGZuQ28-9Vx8DUXwVO2luVBUMgBILyoQ'}
2019-03-27 08:37:53 DEBUG catalog_utils.py:278 Getting catalog item uuid: "\226GT\356\332wM\030\221h\235\2628bBe"
name: "release.karbon.update"
annotation: "d3ccb11049624f9021065381859fbcb34f06ee25cb69ce8c32ac7c93879f841c"
item_type: kLCM
version: 0
opaque: "\n@d3ccb11049624f9021065381859fbcb34f06ee25cb69ce8c32ac7c93879f841c\020\002\032\020\3466!/=yJK\216x\257\251L\005\313f"
source_group_list {
  uuid: "Wz6GM3E,\227\r\364\254\226\306\377\352"
  source_list {
    file_uuid: "\276\246C-\352_B\205\261\344>\245\230\236\344\350"
  }
}
global_catalog_item_uuid: "\310\216nf\361RI\274\255\316\013D\202|\334\252"
location_list {
  cluster_uuid: "\000\005\205\023d\264Q$\000\000\000\000\000\000\321\267"
}
owner_cluster_uuid: "\3466!/=yJK\216x\257\251L\005\313f"
source_catalog_item_id {
  global_catalog_item_uuid: "\310\216nf\361RI\274\255\316\013D\202|\334\252"
  version: 0
}
 with  "python -c \"try:
  from urllib import request
except:
  import urllib2 as request
import ssl

# suppress 'InsecureRequestWarning:Unverified HTTPS*' warning.
try:
  import urllib3
  urllib3.disable_warnings(urllib3.exceptions.InsecureRequestWarning)
except:
  pass

url = 'https://10.42.12.39:9440/file_repo/bea6432d-ea5f-4285-b1e4-3ea5989ee4e8'
cookie = 'JSESSIONID=.eJxdkEFvwjAMhf-LzwRRVmD0hlgPSGVIlG6HaYrc1gxLaRol6aYJ8d8XunKAo58_2-_5DNKQbVCT9pB429EIuo5rSKBcEE0ijMU8xpmIq-cngctpJWhRzqNojlFVLyHQjqz_NRQmst16lQUJO38K-7hCT_VtK7ZOfpN13OqAUmdONrSdmI2jyXgqnMdS0TDcWvZMDpIP2O-yVG6L7LBZZ0V-SPdy9bLdvAaw7xT5o3LD3jbpe7qHzxEYy7pig0pqbK4-sW5YD9alse2Rw-Xk3NcPiEHnflobUuhOqRGotsIrDKRFkQfA0teQaBCObJ2_XQp1w3WtSLIOkVD9awrvEGqQleyfDpfLH8gogW4.D30qUQ.QAb5gPxBCkCQ-jSgYftfEFwJR1y1OV5e3Rc4Ou_Cep_ptYklRl0ltZzGZuQ28-9Vx8DUXwVO2luVBUMgBILyoQ'
file_name = '/home/nutanix/tmp/lcm_staging/bea6432d-ea5f-4285-b1e4-3ea5989ee4e8'

download_out = '~/download.out'

print('Performing the fetch request')
req = request.Request(url, headers={'Cookie': cookie})
try:
  resp = request.urlopen(req, context=ssl._create_unverified_context())
except (TypeError, AttributeError):
  resp = request.urlopen(req)

buf_size = 2**20
print('Writing the catalog item to a file')

with open(file_name, 'wb') as writer:
  while True:
    data = resp.read(buf_size)
    if not data:
      break
    writer.write(data)\" " 
2019-03-27 08:37:53 DEBUG ssh_client.py:188 Executing  "python -c \"try:
  from urllib import request
except:
  import urllib2 as request
import ssl

# suppress 'InsecureRequestWarning:Unverified HTTPS*' warning.
try:
  import urllib3
  urllib3.disable_warnings(urllib3.exceptions.InsecureRequestWarning)
except:
  pass

url = 'https://10.42.12.39:9440/file_repo/bea6432d-ea5f-4285-b1e4-3ea5989ee4e8'
cookie = 'JSESSIONID=.eJxdkEFvwjAMhf-LzwRRVmD0hlgPSGVIlG6HaYrc1gxLaRol6aYJ8d8XunKAo58_2-_5DNKQbVCT9pB429EIuo5rSKBcEE0ijMU8xpmIq-cngctpJWhRzqNojlFVLyHQjqz_NRQmst16lQUJO38K-7hCT_VtK7ZOfpN13OqAUmdONrSdmI2jyXgqnMdS0TDcWvZMDpIP2O-yVG6L7LBZZ0V-SPdy9bLdvAaw7xT5o3LD3jbpe7qHzxEYy7pig0pqbK4-sW5YD9alse2Rw-Xk3NcPiEHnflobUuhOqRGotsIrDKRFkQfA0teQaBCObJ2_XQp1w3WtSLIOkVD9awrvEGqQleyfDpfLH8gogW4.D30qUQ.QAb5gPxBCkCQ-jSgYftfEFwJR1y1OV5e3Rc4Ou_Cep_ptYklRl0ltZzGZuQ28-9Vx8DUXwVO2luVBUMgBILyoQ'
file_name = '/home/nutanix/tmp/lcm_staging/bea6432d-ea5f-4285-b1e4-3ea5989ee4e8'

download_out = '~/download.out'

print('Performing the fetch request')
req = request.Request(url, headers={'Cookie': cookie})
try:
  resp = request.urlopen(req, context=ssl._create_unverified_context())
except (TypeError, AttributeError):
  resp = request.urlopen(req)

buf_size = 2**20
print('Writing the catalog item to a file')

with open(file_name, 'wb') as writer:
  while True:
    data = resp.read(buf_size)
    if not data:
      break
    writer.write(data)\" "  on 10.42.12.39 using ssh -q -o CheckHostIp=no -o ConnectTimeout=15 -o StrictHostKeyChecking=no -o TCPKeepAlive=yes -o UserKnownHostsFile=/dev/null  -o PreferredAuthentications=publickey  nutanix@10.42.12.39
2019-03-27 08:37:53 DEBUG ssh_client.py:200 Executing cmd: ssh -q -o CheckHostIp=no -o ConnectTimeout=15 -o StrictHostKeyChecking=no -o TCPKeepAlive=yes -o UserKnownHostsFile=/dev/null  -o PreferredAuthentications=publickey  nutanix@10.42.12.39  "python -c \"try:
  from urllib import request
except:
  import urllib2 as request
import ssl

# suppress 'InsecureRequestWarning:Unverified HTTPS*' warning.
try:
  import urllib3
  urllib3.disable_warnings(urllib3.exceptions.InsecureRequestWarning)
except:
  pass

url = 'https://10.42.12.39:9440/file_repo/bea6432d-ea5f-4285-b1e4-3ea5989ee4e8'
cookie = 'JSESSIONID=.eJxdkEFvwjAMhf-LzwRRVmD0hlgPSGVIlG6HaYrc1gxLaRol6aYJ8d8XunKAo58_2-_5DNKQbVCT9pB429EIuo5rSKBcEE0ijMU8xpmIq-cngctpJWhRzqNojlFVLyHQjqz_NRQmst16lQUJO38K-7hCT_VtK7ZOfpN13OqAUmdONrSdmI2jyXgqnMdS0TDcWvZMDpIP2O-yVG6L7LBZZ0V-SPdy9bLdvAaw7xT5o3LD3jbpe7qHzxEYy7pig0pqbK4-sW5YD9alse2Rw-Xk3NcPiEHnflobUuhOqRGotsIrDKRFkQfA0teQaBCObJ2_XQp1w3WtSLIOkVD9awrvEGqQleyfDpfLH8gogW4.D30qUQ.QAb5gPxBCkCQ-jSgYftfEFwJR1y1OV5e3Rc4Ou_Cep_ptYklRl0ltZzGZuQ28-9Vx8DUXwVO2luVBUMgBILyoQ'
file_name = '/home/nutanix/tmp/lcm_staging/bea6432d-ea5f-4285-b1e4-3ea5989ee4e8'

download_out = '~/download.out'

print('Performing the fetch request')
req = request.Request(url, headers={'Cookie': cookie})
try:
  resp = request.urlopen(req, context=ssl._create_unverified_context())
except (TypeError, AttributeError):
  resp = request.urlopen(req)

buf_size = 2**20
print('Writing the catalog item to a file')

with open(file_name, 'wb') as writer:
  while True:
    data = resp.read(buf_size)
    if not data:
      break
    writer.write(data)\" " 
2019-03-27 08:37:54 DEBUG ssh_client.py:203 Executed  "python -c \"try:
  from urllib import request
except:
  import urllib2 as request
import ssl

# suppress 'InsecureRequestWarning:Unverified HTTPS*' warning.
try:
  import urllib3
  urllib3.disable_warnings(urllib3.exceptions.InsecureRequestWarning)
except:
  pass

url = 'https://10.42.12.39:9440/file_repo/bea6432d-ea5f-4285-b1e4-3ea5989ee4e8'
cookie = 'JSESSIONID=.eJxdkEFvwjAMhf-LzwRRVmD0hlgPSGVIlG6HaYrc1gxLaRol6aYJ8d8XunKAo58_2-_5DNKQbVCT9pB429EIuo5rSKBcEE0ijMU8xpmIq-cngctpJWhRzqNojlFVLyHQjqz_NRQmst16lQUJO38K-7hCT_VtK7ZOfpN13OqAUmdONrSdmI2jyXgqnMdS0TDcWvZMDpIP2O-yVG6L7LBZZ0V-SPdy9bLdvAaw7xT5o3LD3jbpe7qHzxEYy7pig0pqbK4-sW5YD9alse2Rw-Xk3NcPiEHnflobUuhOqRGotsIrDKRFkQfA0teQaBCObJ2_XQp1w3WtSLIOkVD9awrvEGqQleyfDpfLH8gogW4.D30qUQ.QAb5gPxBCkCQ-jSgYftfEFwJR1y1OV5e3Rc4Ou_Cep_ptYklRl0ltZzGZuQ28-9Vx8DUXwVO2luVBUMgBILyoQ'
file_name = '/home/nutanix/tmp/lcm_staging/bea6432d-ea5f-4285-b1e4-3ea5989ee4e8'

download_out = '~/download.out'

print('Performing the fetch request')
req = request.Request(url, headers={'Cookie': cookie})
try:
  resp = request.urlopen(req, context=ssl._create_unverified_context())
except (TypeError, AttributeError):
  resp = request.urlopen(req)

buf_size = 2**20
print('Writing the catalog item to a file')

with open(file_name, 'wb') as writer:
  while True:
    data = resp.read(buf_size)
    if not data:
      break
    writer.write(data)\" "  on 10.42.12.39: rv 0
2019-03-27 08:37:54 DEBUG catalog_utils.py:262 Getting file from uuid: "\025\314\352\212\235aEP\263\002\212\013\374\'_\275"
name: "nutanix.tools"
annotation: "48b429aaba419e03519da545038974d75282d73ef9a0fee103de1c920193344c"
item_type: kLCM
version: 0
opaque: "\n@48b429aaba419e03519da545038974d75282d73ef9a0fee103de1c920193344c\020\002\032\020\3466!/=yJK\216x\257\251L\005\313f"
source_group_list {
  uuid: "\320;\252@\213\240O\244\215\352E\354\243\207]\t"
  source_list {
    file_uuid: "H1\005\001=zK\341\243\355\235\231\0169\"+"
  }
}
global_catalog_item_uuid: "\327\317\303=/m@\216\257\215\366|\233\217\373g"
location_list {
  cluster_uuid: "\000\005\205\023d\264Q$\000\000\000\000\000\000\321\267"
}
owner_cluster_uuid: "\3466!/=yJK\216x\257\251L\005\313f"
source_catalog_item_id {
  global_catalog_item_uuid: "\327\317\303=/m@\216\257\215\366|\233\217\373g"
  version: 0
}

2019-03-27 08:37:54 DEBUG lcm_catalog.py:283 Found file uuids ['48310501-3d7a-4be1-a3ed-9d990e39222b']
2019-03-27 08:37:54 DEBUG catalog_utils.py:675 Prism is up and running
2019-03-27 08:37:54 DEBUG catalog_utils.py:653 Authentication header: {'name': 'JSESSIONID', 'value': '.eJxdkEFvwjAMhf-LzwR1AwrrDbEeKpUhAd0O0xSZxh2W0jRK0k0T4r8vsHIYRz9_tt_zCaQl16IhEyALrqcR9D0ryGCRzOv6aT4XadIkYrqYLQRiqkSjppM6TWaHFCcQaU8u_FiKE-VmtSyjhH04xn1cYyB124qdl1_kPHcmotTbo4ttL2bjh2T8KHzAg6ZhuHMcmDxk77DdlLlcV-W-WJXVbp9v5fJ5XbxE8NqpdvfKDXst8rd8Cx8jsI5NzRa1NNhefKJq2QzWpXVdw_FydrrWd4hF7787F1OYXusR6K7GCwxkRLWLgKPPIdEgNOx8uF2KdctKaZJsYiTUf5rGfwi1yFpenw7n8y9Ta4Ee.D30qUg.I7OxawJVC14sMxiCI3ISjultBu3pKZyQ9uk4E5rhNg200yr3Xu9_EhFHxmRFmh46ExyVK12vnV3FiMBhizyEdw'}
2019-03-27 08:37:54 DEBUG catalog_utils.py:278 Getting catalog item uuid: "\025\314\352\212\235aEP\263\002\212\013\374\'_\275"
name: "nutanix.tools"
annotation: "48b429aaba419e03519da545038974d75282d73ef9a0fee103de1c920193344c"
item_type: kLCM
version: 0
opaque: "\n@48b429aaba419e03519da545038974d75282d73ef9a0fee103de1c920193344c\020\002\032\020\3466!/=yJK\216x\257\251L\005\313f"
source_group_list {
  uuid: "\320;\252@\213\240O\244\215\352E\354\243\207]\t"
  source_list {
    file_uuid: "H1\005\001=zK\341\243\355\235\231\0169\"+"
  }
}
global_catalog_item_uuid: "\327\317\303=/m@\216\257\215\366|\233\217\373g"
location_list {
  cluster_uuid: "\000\005\205\023d\264Q$\000\000\000\000\000\000\321\267"
}
owner_cluster_uuid: "\3466!/=yJK\216x\257\251L\005\313f"
source_catalog_item_id {
  global_catalog_item_uuid: "\327\317\303=/m@\216\257\215\366|\233\217\373g"
  version: 0
}
 with  "python -c \"try:
  from urllib import request
except:
  import urllib2 as request
import ssl

# suppress 'InsecureRequestWarning:Unverified HTTPS*' warning.
try:
  import urllib3
  urllib3.disable_warnings(urllib3.exceptions.InsecureRequestWarning)
except:
  pass

url = 'https://10.42.12.39:9440/file_repo/48310501-3d7a-4be1-a3ed-9d990e39222b'
cookie = 'JSESSIONID=.eJxdkEFvwjAMhf-LzwR1AwrrDbEeKpUhAd0O0xSZxh2W0jRK0k0T4r8vsHIYRz9_tt_zCaQl16IhEyALrqcR9D0ryGCRzOv6aT4XadIkYrqYLQRiqkSjppM6TWaHFCcQaU8u_FiKE-VmtSyjhH04xn1cYyB124qdl1_kPHcmotTbo4ttL2bjh2T8KHzAg6ZhuHMcmDxk77DdlLlcV-W-WJXVbp9v5fJ5XbxE8NqpdvfKDXst8rd8Cx8jsI5NzRa1NNhefKJq2QzWpXVdw_FydrrWd4hF7787F1OYXusR6K7GCwxkRLWLgKPPIdEgNOx8uF2KdctKaZJsYiTUf5rGfwi1yFpenw7n8y9Ta4Ee.D30qUg.I7OxawJVC14sMxiCI3ISjultBu3pKZyQ9uk4E5rhNg200yr3Xu9_EhFHxmRFmh46ExyVK12vnV3FiMBhizyEdw'
file_name = '/home/nutanix/tmp/lcm_staging/48310501-3d7a-4be1-a3ed-9d990e39222b'

download_out = '~/download.out'

print('Performing the fetch request')
req = request.Request(url, headers={'Cookie': cookie})
try:
  resp = request.urlopen(req, context=ssl._create_unverified_context())
except (TypeError, AttributeError):
  resp = request.urlopen(req)

buf_size = 2**20
print('Writing the catalog item to a file')

with open(file_name, 'wb') as writer:
  while True:
    data = resp.read(buf_size)
    if not data:
      break
    writer.write(data)\" " 
2019-03-27 08:37:54 DEBUG ssh_client.py:188 Executing  "python -c \"try:
  from urllib import request
except:
  import urllib2 as request
import ssl

# suppress 'InsecureRequestWarning:Unverified HTTPS*' warning.
try:
  import urllib3
  urllib3.disable_warnings(urllib3.exceptions.InsecureRequestWarning)
except:
  pass

url = 'https://10.42.12.39:9440/file_repo/48310501-3d7a-4be1-a3ed-9d990e39222b'
cookie = 'JSESSIONID=.eJxdkEFvwjAMhf-LzwR1AwrrDbEeKpUhAd0O0xSZxh2W0jRK0k0T4r8vsHIYRz9_tt_zCaQl16IhEyALrqcR9D0ryGCRzOv6aT4XadIkYrqYLQRiqkSjppM6TWaHFCcQaU8u_FiKE-VmtSyjhH04xn1cYyB124qdl1_kPHcmotTbo4ttL2bjh2T8KHzAg6ZhuHMcmDxk77DdlLlcV-W-WJXVbp9v5fJ5XbxE8NqpdvfKDXst8rd8Cx8jsI5NzRa1NNhefKJq2QzWpXVdw_FydrrWd4hF7787F1OYXusR6K7GCwxkRLWLgKPPIdEgNOx8uF2KdctKaZJsYiTUf5rGfwi1yFpenw7n8y9Ta4Ee.D30qUg.I7OxawJVC14sMxiCI3ISjultBu3pKZyQ9uk4E5rhNg200yr3Xu9_EhFHxmRFmh46ExyVK12vnV3FiMBhizyEdw'
file_name = '/home/nutanix/tmp/lcm_staging/48310501-3d7a-4be1-a3ed-9d990e39222b'

download_out = '~/download.out'

print('Performing the fetch request')
req = request.Request(url, headers={'Cookie': cookie})
try:
  resp = request.urlopen(req, context=ssl._create_unverified_context())
except (TypeError, AttributeError):
  resp = request.urlopen(req)

buf_size = 2**20
print('Writing the catalog item to a file')

with open(file_name, 'wb') as writer:
  while True:
    data = resp.read(buf_size)
    if not data:
      break
    writer.write(data)\" "  on 10.42.12.39 using ssh -q -o CheckHostIp=no -o ConnectTimeout=15 -o StrictHostKeyChecking=no -o TCPKeepAlive=yes -o UserKnownHostsFile=/dev/null  -o PreferredAuthentications=publickey  nutanix@10.42.12.39
2019-03-27 08:37:54 DEBUG ssh_client.py:200 Executing cmd: ssh -q -o CheckHostIp=no -o ConnectTimeout=15 -o StrictHostKeyChecking=no -o TCPKeepAlive=yes -o UserKnownHostsFile=/dev/null  -o PreferredAuthentications=publickey  nutanix@10.42.12.39  "python -c \"try:
  from urllib import request
except:
  import urllib2 as request
import ssl

# suppress 'InsecureRequestWarning:Unverified HTTPS*' warning.
try:
  import urllib3
  urllib3.disable_warnings(urllib3.exceptions.InsecureRequestWarning)
except:
  pass

url = 'https://10.42.12.39:9440/file_repo/48310501-3d7a-4be1-a3ed-9d990e39222b'
cookie = 'JSESSIONID=.eJxdkEFvwjAMhf-LzwR1AwrrDbEeKpUhAd0O0xSZxh2W0jRK0k0T4r8vsHIYRz9_tt_zCaQl16IhEyALrqcR9D0ryGCRzOv6aT4XadIkYrqYLQRiqkSjppM6TWaHFCcQaU8u_FiKE-VmtSyjhH04xn1cYyB124qdl1_kPHcmotTbo4ttL2bjh2T8KHzAg6ZhuHMcmDxk77DdlLlcV-W-WJXVbp9v5fJ5XbxE8NqpdvfKDXst8rd8Cx8jsI5NzRa1NNhefKJq2QzWpXVdw_FydrrWd4hF7787F1OYXusR6K7GCwxkRLWLgKPPIdEgNOx8uF2KdctKaZJsYiTUf5rGfwi1yFpenw7n8y9Ta4Ee.D30qUg.I7OxawJVC14sMxiCI3ISjultBu3pKZyQ9uk4E5rhNg200yr3Xu9_EhFHxmRFmh46ExyVK12vnV3FiMBhizyEdw'
file_name = '/home/nutanix/tmp/lcm_staging/48310501-3d7a-4be1-a3ed-9d990e39222b'

download_out = '~/download.out'

print('Performing the fetch request')
req = request.Request(url, headers={'Cookie': cookie})
try:
  resp = request.urlopen(req, context=ssl._create_unverified_context())
except (TypeError, AttributeError):
  resp = request.urlopen(req)

buf_size = 2**20
print('Writing the catalog item to a file')

with open(file_name, 'wb') as writer:
  while True:
    data = resp.read(buf_size)
    if not data:
      break
    writer.write(data)\" " 
2019-03-27 08:37:55 DEBUG ssh_client.py:203 Executed  "python -c \"try:
  from urllib import request
except:
  import urllib2 as request
import ssl

# suppress 'InsecureRequestWarning:Unverified HTTPS*' warning.
try:
  import urllib3
  urllib3.disable_warnings(urllib3.exceptions.InsecureRequestWarning)
except:
  pass

url = 'https://10.42.12.39:9440/file_repo/48310501-3d7a-4be1-a3ed-9d990e39222b'
cookie = 'JSESSIONID=.eJxdkEFvwjAMhf-LzwR1AwrrDbEeKpUhAd0O0xSZxh2W0jRK0k0T4r8vsHIYRz9_tt_zCaQl16IhEyALrqcR9D0ryGCRzOv6aT4XadIkYrqYLQRiqkSjppM6TWaHFCcQaU8u_FiKE-VmtSyjhH04xn1cYyB124qdl1_kPHcmotTbo4ttL2bjh2T8KHzAg6ZhuHMcmDxk77DdlLlcV-W-WJXVbp9v5fJ5XbxE8NqpdvfKDXst8rd8Cx8jsI5NzRa1NNhefKJq2QzWpXVdw_FydrrWd4hF7787F1OYXusR6K7GCwxkRLWLgKPPIdEgNOx8uF2KdctKaZJsYiTUf5rGfwi1yFpenw7n8y9Ta4Ee.D30qUg.I7OxawJVC14sMxiCI3ISjultBu3pKZyQ9uk4E5rhNg200yr3Xu9_EhFHxmRFmh46ExyVK12vnV3FiMBhizyEdw'
file_name = '/home/nutanix/tmp/lcm_staging/48310501-3d7a-4be1-a3ed-9d990e39222b'

download_out = '~/download.out'

print('Performing the fetch request')
req = request.Request(url, headers={'Cookie': cookie})
try:
  resp = request.urlopen(req, context=ssl._create_unverified_context())
except (TypeError, AttributeError):
  resp = request.urlopen(req)

buf_size = 2**20
print('Writing the catalog item to a file')

with open(file_name, 'wb') as writer:
  while True:
    data = resp.read(buf_size)
    if not data:
      break
    writer.write(data)\" "  on 10.42.12.39: rv 0
2019-03-27 08:37:55 DEBUG catalog_utils.py:262 Getting file from uuid: "\262\367Q\375\363\341Cp\276w\005\300\365\355\206\352"
name: "release.karbon.update_tools"
annotation: "77253ffc5eeaa1c21d3af86398e549af2d1be18f23114b4e26a0308684159a12"
item_type: kLCM
version: 0
opaque: "\n@77253ffc5eeaa1c21d3af86398e549af2d1be18f23114b4e26a0308684159a12\020\002\032\020\3466!/=yJK\216x\257\251L\005\313f"
source_group_list {
  uuid: "j\310\212\237]\250C\246\225\212\375y\357\350s\225"
  source_list {
    file_uuid: "R\261\316|]\234Mn\267\343`\355og\'\241"
  }
}
global_catalog_item_uuid: "\205\022\317}\301\245M\240\222,|l\036\301hY"
location_list {
  cluster_uuid: "\000\005\205\023d\264Q$\000\000\000\000\000\000\321\267"
}
owner_cluster_uuid: "\3466!/=yJK\216x\257\251L\005\313f"
source_catalog_item_id {
  global_catalog_item_uuid: "\205\022\317}\301\245M\240\222,|l\036\301hY"
  version: 0
}

2019-03-27 08:37:55 DEBUG lcm_catalog.py:283 Found file uuids ['52b1ce7c-5d9c-4d6e-b7e3-60ed6f6727a1']
2019-03-27 08:37:55 DEBUG catalog_utils.py:675 Prism is up and running
2019-03-27 08:37:56 DEBUG catalog_utils.py:653 Authentication header: {'name': 'JSESSIONID', 'value': '.eJxdkEFvwjAMhf-LzwQVClLpDUEPSGVIQLfDNEVuY4alNI2SdNOE-O8LrBzG0c-f7fd8AWnJtWjIBMiD62kEfc8KcpglGS1mqRJTNZmIWZbMRY1ZIqie17RIM6ImhUh7cuHHUpwod6tlGSXswznu4wYDqcdW7Lz8Iue5MxGl3p5dbHsxH0-S8VT4gLWmYbhzHJg85O-w35WF3FblcbMqq8Ox2Mvlert5ieC9Ux2elQf2uineij18jMA6Ng1b1NJge_OJqmUzWJfWdSeOl_PLvX5CLHr_3bmYwvRaj0B3Dd5gICOqQwQcfQ6JBuHEzofHpVi3rJQmySZGQv2nafyHUIus5f3pcL3-AoYYgUY.D30qVA.VG6ELvUBz4ffxiPXxr4eHT-XHRHuad77Irkkj4pX4hlTG1dQwn6r-IKCRD3Cy7KkR9zfIOWdHN5fbgDBrtLBXA'}
2019-03-27 08:37:56 DEBUG catalog_utils.py:278 Getting catalog item uuid: "\262\367Q\375\363\341Cp\276w\005\300\365\355\206\352"
name: "release.karbon.update_tools"
annotation: "77253ffc5eeaa1c21d3af86398e549af2d1be18f23114b4e26a0308684159a12"
item_type: kLCM
version: 0
opaque: "\n@77253ffc5eeaa1c21d3af86398e549af2d1be18f23114b4e26a0308684159a12\020\002\032\020\3466!/=yJK\216x\257\251L\005\313f"
source_group_list {
  uuid: "j\310\212\237]\250C\246\225\212\375y\357\350s\225"
  source_list {
    file_uuid: "R\261\316|]\234Mn\267\343`\355og\'\241"
  }
}
global_catalog_item_uuid: "\205\022\317}\301\245M\240\222,|l\036\301hY"
location_list {
  cluster_uuid: "\000\005\205\023d\264Q$\000\000\000\000\000\000\321\267"
}
owner_cluster_uuid: "\3466!/=yJK\216x\257\251L\005\313f"
source_catalog_item_id {
  global_catalog_item_uuid: "\205\022\317}\301\245M\240\222,|l\036\301hY"
  version: 0
}
 with  "python -c \"try:
  from urllib import request
except:
  import urllib2 as request
import ssl

# suppress 'InsecureRequestWarning:Unverified HTTPS*' warning.
try:
  import urllib3
  urllib3.disable_warnings(urllib3.exceptions.InsecureRequestWarning)
except:
  pass

url = 'https://10.42.12.39:9440/file_repo/52b1ce7c-5d9c-4d6e-b7e3-60ed6f6727a1'
